{
  "venues": {
    "83 Rivington Street": { "address": "83 Rivington Street, London EC2A 3AY", "lat": 51.52600, "lng": -0.07920, "confidence": "high", "note": "Cargo / 83 Rivington Street event space on Kingsland Viaduct." },
    "93 Feet East": { "address": "150 Brick Lane, London E1 6RU", "lat": 51.52350, "lng": -0.07140, "confidence": "high", "note": "Brick Lane frontage of the Truman Brewery. Some listings give E1 6QL (brewery main postcode)." },
    "Bangla House": { "address": "Brick Lane, London E1 6QL", "lat": 51.52000, "lng": -0.07180, "confidence": "low", "note": "Could not pin down a venue called 'Bangla House' - likely a temporary/branded space in the Brick Lane (Banglatown) area. Placeholder uses Truman Brewery postcode." },
    "Barbican Centre": { "address": "Silk Street, London EC2Y 8DS", "lat": 51.51985, "lng": -0.09397, "confidence": "high", "note": "Confirmed via Barbican / Visit London." },
    "Bike Shed Moto Co": { "address": "384 Old Street, London EC1V 9LT", "lat": 51.52580, "lng": -0.08770, "confidence": "high", "note": "Railway arches by Old Street; official site." },
    "Brick Lane Yard": { "address": "91 Brick Lane, London E1 6QL", "lat": 51.52120, "lng": -0.07210, "confidence": "low", "note": "Part of the Old Truman Brewery complex (likely Ely's Yard). No distinct postcode found; uses brewery main address." },
    "Christ Church Spitalfields": { "address": "Commercial Street, London E1 6LY", "lat": 51.51910, "lng": -0.07480, "confidence": "high", "note": "Confirmed via church site / A Church Near You." },
    "Colours Hoxton": { "address": "2-4 Hoxton Square, London N1 6NU", "lat": 51.52720, "lng": -0.08260, "confidence": "high", "note": "Formerly Hoxton Square Bar & Kitchen; official site." },
    "Conference Roundtables at Truman Brewery's Half Press Room": { "address": "91 Brick Lane, London E1 6QL", "lat": 51.52120, "lng": -0.07210, "confidence": "medium", "note": "Press Room is a space within the Old Truman Brewery; uses brewery main address." },
    "Curzon Hoxton": { "address": "55 Pitfield Street, London N1 6BU", "lat": 51.52830, "lng": -0.08180, "confidence": "high", "note": "Confirmed via curzon.com." },
    "Devonshire Square": { "address": "Devonshire Square, London EC2M 4YE", "lat": 51.51640, "lng": -0.08040, "confidence": "high", "note": "DSQ campus off Bishopsgate; official contact postcode." },
    "Dishoom": { "address": "7 Boundary Street, London E2 7JE", "lat": 51.52560, "lng": -0.07640, "confidence": "high", "note": "Shoreditch branch." },
    "Dream Bags Jaguar Shoes": { "address": "32-36 Kingsland Road, London E2 8DA", "lat": 51.52720, "lng": -0.07710, "confidence": "high", "note": "Confirmed via jaguarshoes.com." },
    "Fora - 35-41 Folgate Street": { "address": "35-41 Folgate Street, London E1 6BX", "lat": 51.51960, "lng": -0.07670, "confidence": "high", "note": "Fora Spitalfields." },
    "Fora - Montacute Yards": { "address": "186 Shoreditch High Street, London E1 6HU", "lat": 51.52310, "lng": -0.07650, "confidence": "high", "note": "185-186 Shoreditch High Street." },
    "Fora - The Black & White Building": { "address": "74 Rivington Street, London EC2A 3AY", "lat": 51.52580, "lng": -0.07950, "confidence": "high", "note": "Confirmed via foraspace.com." },
    "H.O.M.E": { "address": "12 Goswell Road, London EC1M 7AA", "lat": 51.52222, "lng": -0.09721, "confidence": "low", "note": "Only documented 'H.O.M.E' is a restaurant in Clerkenwell, not the Shoreditch core. If SXSW means a different pop-up space, this may be wrong." },
    "Hidden Grooves": { "address": "45 Curtain Road, London EC2A 3PT", "lat": 51.52460, "lng": -0.08010, "confidence": "high", "note": "Listening bar inside Virgin Hotel London-Shoreditch." },
    "Juju's Bar & Stage": { "address": "15 Hanbury Street, London E1 6QR", "lat": 51.51990, "lng": -0.07320, "confidence": "high", "note": "Ely's Yard, Old Truman Brewery." },
    "MOTHER": { "address": "Biscuit Building, 10 Redchurch Street, London E2 7DD", "lat": 51.52440, "lng": -0.07440, "confidence": "medium", "note": "Mother London advertising agency HQ (Biscuit Building). Assumed this is the SXSW venue." },
    "Mentoring at The Courthouse": { "address": "335-337 Old Street, London EC1V 9LL", "lat": 51.52580, "lng": -0.08730, "confidence": "medium", "note": "Courthouse Hotel Shoreditch (former Old Street Magistrates' Court)." },
    "Protein Studios": { "address": "31 New Inn Yard, London EC2A 3EY", "lat": 51.52460, "lng": -0.07840, "confidence": "high", "note": "Shoreditch event/creative space." },
    "Rich Mix": { "address": "35-47 Bethnal Green Road, London E1 6LA", "lat": 51.52340, "lng": -0.07260, "confidence": "high", "note": "Confirmed via Visit London." },
    "Shoreditch Arts Club": { "address": "The Tea Building, 56 Shoreditch High Street, London E1 6JJ", "lat": 51.52400, "lng": -0.07700, "confidence": "medium", "note": "Members' club in the Tea Building (entrance on Redchurch Street side)." },
    "Shoreditch Tab Centre": { "address": "3 Godfrey Place, London E2 7NT", "lat": 51.52810, "lng": -0.07490, "confidence": "high", "note": "Tab Centre venue; official site." },
    "Shoreditch Town Hall": { "address": "380 Old Street, London EC1V 9LT", "lat": 51.52560, "lng": -0.08780, "confidence": "high", "note": "Confirmed via shoreditchtownhall.com." },
    "Spitalfields": { "address": "16 Horner Square, Old Spitalfields Market, London E1 6EW", "lat": 51.51960, "lng": -0.07530, "confidence": "high", "note": "Old Spitalfields Market." },
    "Stink Offices": { "address": "64-66 Redchurch Street, London E2 7DP", "lat": 51.52430, "lng": -0.07390, "confidence": "low", "note": "Stink production company registered office. Best guess; unverified as the SXSW space." },
    "The Hoxton": { "address": "81 Great Eastern Street, London EC2A 3HU", "lat": 51.52560, "lng": -0.08000, "confidence": "high", "note": "The Hoxton, Shoreditch (81-83 Great Eastern Street)." },
    "Truman Brewery": { "address": "91 Brick Lane, London E1 6QL", "lat": 51.52120, "lng": -0.07210, "confidence": "high", "note": "Old Truman Brewery main address." },
    "Unlocked": { "address": "118 Curtain Road, London EC2A 3AY", "lat": 51.52610, "lng": -0.08030, "confidence": "medium", "note": "Unlocked Shoreditch, 118 Curtain Road; Curtain Road spans several postcodes so this is the best available." },
    "Village Underground": { "address": "54 Holywell Lane, London EC2A 3PQ", "lat": 51.52373, "lng": -0.07851, "confidence": "high", "note": "Confirmed via villageunderground.co.uk." },
    "XOYO": { "address": "32-37 Cowper Street, London EC2A 4AP", "lat": 51.52480, "lng": -0.08470, "confidence": "high", "note": "Confirmed via xoyo.co.uk." }
  }
}
